# 
# Header Description:
# 
# Version: v3.0.6.1 Platform: 11 Manufacturer: OnePlus Model: HD1901
# 
# Raw,utcTimeMillis,TimeNanos,LeapSecond,TimeUncertaintyNanos,FullBiasNanos,BiasNanos,BiasUncertaintyNanos,DriftNanosPerSecond,DriftUncertaintyNanosPerSecond,HardwareClockDiscontinuityCount,Svid,TimeOffsetNanos,State,ReceivedSvTimeNanos,ReceivedSvTimeUncertaintyNanos,Cn0DbHz,PseudorangeRateMetersPerSecond,PseudorangeRateUncertaintyMetersPerSecond,AccumulatedDeltaRangeState,AccumulatedDeltaRangeMeters,AccumulatedDeltaRangeUncertaintyMeters,CarrierFrequencyHz,CarrierCycles,CarrierPhase,CarrierPhaseUncertainty,MultipathIndicator,SnrInDb,ConstellationType,AgcDb,BasebandCn0DbHz,FullInterSignalBiasNanos,FullInterSignalBiasUncertaintyNanos,SatelliteInterSignalBiasNanos,SatelliteInterSignalBiasUncertaintyNanos,CodeType,ChipsetElapsedRealtimeNanos
# 
# UncalAccel,utcTimeMillis,elapsedRealtimeNanos,UncalAccelXMps2,UncalAccelYMps2,UncalAccelZMps2,BiasXMps2,BiasYMps2,BiasZMps2
# 
# Accel,utcTimeMillis,elapsedRealtimeNanos,AccelXMps2,AccelYMps2,AccelZMps2
# 
# UncalGyro,utcTimeMillis,elapsedRealtimeNanos,UncalGyroXRadPerSec,UncalGyroYRadPerSec,UncalGyroZRadPerSec,DriftXRadPerSec,DriftYRadPerSec,DriftZRadPerSec
# 
# Gyro,utcTimeMillis,elapsedRealtimeNanos,GyroXRadPerSec,GyroYRadPerSec,GyroZRadPerSec
# 
# UncalMag,utcTimeMillis,elapsedRealtimeNanos,UncalMagXMicroT,UncalMagYMicroT,UncalMagZMicroT,BiasXMicroT,BiasYMicroT,BiasZMicroT
# 
# Mag,utcTimeMillis,elapsedRealtimeNanos,MagXMicroT,MagYMicroT,MagZMicroT
# 
# OrientationDeg,utcTimeMillis,elapsedRealtimeNanos,yawDeg,rollDeg,pitchDeg
# 
# Fix,Provider,LatitudeDegrees,LongitudeDegrees,AltitudeMeters,SpeedMps,AccuracyMeters,BearingDegrees,UnixTimeMillis,SpeedAccuracyMps,BearingAccuracyDegrees,elapsedRealtimeNanos,VerticalAccuracyMeters
# 
# Nav,Svid,Type,Status,MessageId,Sub-messageId,Data(Bytes)
# 
# Status,UnixTimeMillis,SignalCount,SignalIndex,ConstellationType,Svid,CarrierFrequencyHz,Cn0DbHz,AzimuthDegrees,ElevationDegrees,UsedInFix,HasAlmanacData,HasEphemerisData,BasebandCn0DbHz
# 
Status,,51,0,1,5,1575420030,20.60,184.0,30.0,1,1,1,20.6
Status,,51,1,1,6,1575420030,25.60,23.0,35.0,1,1,1,25.6
Status,,51,2,1,11,1575420030,19.10,324.0,68.0,0,1,0,19.1
Status,,51,3,1,12,1575420030,18.60,327.0,33.0,1,1,0,18.6
Status,,51,4,1,20,1575420030,33.90,163.0,56.0,1,1,1,33.9
Status,,51,5,1,24,1575420030,27.30,254.0,31.0,1,1,0,27.3
Status,,51,6,1,13,1575420030,0.00,185.0,2.0,0,1,0,0.0
Status,,51,7,1,14,1575420030,0.00,133.0,11.0,0,1,1,0.0
Status,,51,8,1,17,1575420030,0.00,70.0,13.0,1,1,0,0.0
Status,,51,9,1,19,1575420030,0.00,49.0,27.0,0,1,1,0.0
Status,,51,10,1,25,1575420030,0.00,320.0,3.0,0,1,0,0.0
Status,,51,11,1,6,1176450050,15.60,23.0,35.0,0,1,1,15.6
Status,,51,12,1,24,1176450050,30.00,254.0,31.0,0,1,0,30.0
Status,,51,13,3,9,1600875010,19.00,300.0,65.0,1,1,0,19.0
Status,,51,14,3,16,1601437440,33.00,171.0,47.0,1,1,1,33.0
Status,,51,15,3,19,1603687550,17.10,8.0,27.0,0,1,0,17.1
Status,,51,16,3,10,1598062460,0.00,327.0,21.0,0,1,0,0.0
Status,,51,17,3,18,1600312450,0.00,0.0,0.0,0,1,0,0.0
Status,,51,18,3,5,1602562560,0.00,146.0,9.0,0,1,0,0.0
Status,,51,19,3,20,1603124990,0.00,293.0,35.0,0,1,0,0.0
Status,,51,20,3,3,1604812540,0.00,52.0,2.0,0,1,0,0.0
Status,,51,21,3,4,1605374980,0.00,98.0,15.0,0,1,0,0.0
Status,,51,22,5,30,1561097980,23.50,29.0,33.0,0,1,0,23.5
Status,,51,23,5,20,1561097980,37.90,133.0,28.0,1,1,1,37.9
Status,,51,24,5,19,1561097980,13.50,181.0,10.0,0,1,0,13.5
Status,,51,25,5,13,1561097980,16.30,80.0,81.0,0,1,0,16.3
Status,,51,26,5,8,1561097980,18.00,49.0,70.0,1,1,1,18.0
Status,,51,27,5,7,1561097980,18.10,85.0,47.0,1,1,0,18.1
Status,,51,28,5,5,1561097980,25.20,227.0,59.0,0,1,0,25.2
Status,,51,29,5,3,1561097980,26.10,113.0,47.0,1,1,0,26.1
Status,,51,30,5,2,1561097980,27.50,161.0,67.0,0,1,0,27.5
Status,,51,31,5,1,1561097980,0.00,95.0,14.0,0,1,0,0.0
Status,,51,32,5,6,1561097980,0.00,161.0,4.0,0,1,0,0.0
Status,,51,33,5,9,1561097980,0.00,175.0,11.0,0,1,0,0.0
Status,,51,34,5,10,1561097980,0.00,64.0,58.0,0,1,0,0.0
Status,,51,35,5,16,1561097980,0.00,157.0,1.0,0,1,0,0.0
Status,,51,36,5,29,1561097980,0.00,316.0,41.0,0,1,0,0.0
Status,,51,37,4,194,1575420030,18.60,123.0,23.0,0,1,1,18.6
Status,,51,38,4,195,1575420030,16.70,56.0,23.0,1,1,1,16.7
Status,,51,39,2,128,1575420030,37.00,0.0,0.0,0,0,0,37.0
Status,,51,40,4,196,1575420030,0.00,84.0,21.0,0,0,0,0.0
Status,,51,41,4,194,1176450050,23.50,123.0,23.0,1,1,1,23.5
Status,,51,42,6,1,1575420030,16.30,329.0,47.0,1,1,0,16.3
Status,,51,43,6,7,1575420030,17.00,125.0,5.0,0,1,0,17.0
Status,,51,44,6,21,1575420030,17.00,106.0,78.0,0,1,0,17.0
Status,,51,45,6,26,1575420030,13.90,324.0,62.0,0,1,0,13.9
Status,,51,46,6,27,1575420030,35.00,136.0,25.0,1,1,0,35.0
Status,,51,47,6,33,1575420030,28.90,250.0,35.0,1,1,0,28.9
Status,,51,48,6,13,1575420030,0.00,29.0,25.0,0,1,0,0.0
Status,,51,49,6,27,1176450050,30.60,136.0,25.0,0,1,0,30.6
Status,,51,50,6,33,1176450050,10.80,250.0,35.0,0,1,0,10.8
Fix,GPS,17.4456308000,78.3826882500,512.8897094726562,0.0,3.7900925,,1681634787000,0.3522783,,861167977637170,2.5581453
Raw,1681634786448,1000933716000000,18,,-1364669070732117100,-0.5144715309143066,40.09250915260054,23.081045084649006,21.234296427366562,211,5,0.0,16399,31604372109310,70,20.6,-630.9852905273438,1.934499979019165,16,0.0,0.0,1575420030,,,,0,,1,1.1,17.0,0.0,0.0,,,C,
Raw,1681634786448,1000933716000000,18,,-1364669070732117100,-0.5144715309143066,40.09250915260054,23.081045084649006,21.234296427366562,211,6,0.0,16399,31604374024765,35,25.6,530.7385864257812,0.8075000047683716,16,0.0,0.0,1575420030,,,,0,,1,1.1,22.0,0.0,0.0,,,C,
Raw,1681634786448,1000933716000000,18,,-1364669070732117100,-0.5144715309143066,40.09250915260054,23.081045084649006,21.234296427366562,211,20,0.0,16399,31604378247796,14,33.9,-364.28076171875,0.04990000277757645,16,0.0,1902.9177342976868,1575420030,,,,0,,1,1.1,30.299999999999997,0.0,0.0,,,C,
Raw,1681634786448,1000933716000000,18,,-1364669070732117100,-0.5144715309143066,40.09250915260054,23.081045084649006,21.234296427366562,211,24,0.0,16399,31604371745417,31,27.3,227.23919677734375,0.6829999685287476,16,0.0,0.0,1575420030,,,,0,,1,1.1,23.7,0.0,0.0,,,C,
Raw,1681634786448,1000933716000000,18,,-1364669070732117100,-0.5144715309143066,40.09250915260054,23.081045084649006,21.234296427366562,211,16,0.0,49359,42386379878438,16,33.0,605.0747680664062,0.2224000096321106,16,0.0,1872.002391714177,1601437440,,,,0,,3,-0.45,29.0,3854.348876953125,14.640493392944336,,,C,
Raw,1681634786448,1000933716000000,18,,-1364669070732117100,-0.5144715309143066,40.09250915260054,23.081045084649006,21.234296427366562,211,30,0.0,16399,31590368391099,53,23.5,245.27285766601562,0.9284999966621399,16,0.0,0.0,1561097980,,,,0,,5,1.43,19.2,-1512.14111328125,13.567665100097656,,,I,
Raw,1681634786448,1000933716000000,18,,-1364669070732117100,-0.5144715309143066,40.09250915260054,23.081045084649006,21.234296427366562,211,20,0.0,16399,31590368077187,11,37.9,-372.0808410644531,0.03319999948143959,16,0.0,1920.3757538518662,1561097980,,,,0,,5,1.43,33.6,-1512.14111328125,13.567665100097656,,,I,
Raw,1681634786448,1000933716000000,18,,-1364669070732117100,-0.5144715309143066,40.09250915260054,23.081045084649006,21.234296427366562,211,3,0.0,16399,31590324775060,40,26.1,15.28634262084961,6.486599922180176,16,0.0,0.0,1561097980,,,,0,,5,1.43,21.8,-1512.14111328125,13.567665100097656,,,I,
Raw,1681634786448,1000933716000000,18,,-1364669070732117100,-0.5144715309143066,40.09250915260054,23.081045084649006,21.234296427366562,211,27,0.0,23567,31604360418847,14,35.0,443.5930480957031,0.061900001019239426,16,0.0,1902.9177342976868,1575420030,,,,0,,6,0.76,30.7,-739.5802612304688,14.004313468933105,,,C,
Raw,1681634786448,1000933716000000,18,,-1364669070732117100,-0.5144715309143066,40.09250915260054,23.081045084649006,21.234296427366562,211,33,0.0,23567,31604362884793,27,28.9,-199.3135986328125,0.6285000443458557,16,0.0,0.0,1575420030,,,,0,,6,0.76,24.599999999999998,-739.5802612304688,14.004313468933105,,,C,
Raw,1681634786448,1000933716000000,18,,-1364669070732117100,-0.5144715309143066,40.09250915260054,23.081045084649006,21.234296427366562,211,194,0.0,16399,31604322719573,12,23.5,-72.33293914794922,0.934499979019165,16,0.0,0.0,1176450050,,,,0,,4,,18.6,-7860.00048828125,100.0,,,Q,
Status,1681634787000,51,0,1,5,1575420030,20.60,184.0,30.0,1,1,1,20.6
Status,1681634787000,51,1,1,6,1575420030,26.20,23.0,35.0,1,1,1,26.2
Status,1681634787000,51,2,1,11,1575420030,19.10,324.0,68.0,0,1,0,19.1
Status,1681634787000,51,3,1,12,1575420030,19.00,327.0,33.0,1,1,0,19.0
Status,1681634787000,51,4,1,17,1575420030,20.60,70.0,13.0,1,1,0,20.6
Status,1681634787000,51,5,1,20,1575420030,31.40,163.0,56.0,1,1,1,31.4
Status,1681634787000,51,6,1,24,1575420030,24.90,254.0,31.0,1,1,0,24.9
Status,1681634787000,51,7,1,13,1575420030,0.00,185.0,2.0,0,1,0,0.0
Status,1681634787000,51,8,1,14,1575420030,0.00,133.0,11.0,0,1,1,0.0
Status,1681634787000,51,9,1,19,1575420030,0.00,49.0,27.0,0,1,1,0.0
Status,1681634787000,51,10,1,25,1575420030,0.00,320.0,3.0,0,1,0,0.0
Status,1681634787000,51,11,1,6,1176450050,15.60,23.0,35.0,0,1,1,15.6
Status,1681634787000,51,12,1,24,1176450050,30.00,254.0,31.0,0,1,0,30.0
Status,1681634787000,51,13,3,9,1600875010,19.00,300.0,65.0,1,1,0,19.0
Status,1681634787000,51,14,3,16,1601437440,32.90,171.0,47.0,1,1,1,32.9
Status,1681634787000,51,15,3,19,1603687550,17.10,8.0,27.0,0,1,0,17.1
Status,1681634787000,51,16,3,10,1598062460,0.00,327.0,21.0,0,1,0,0.0
Status,1681634787000,51,17,3,18,1600312450,0.00,0.0,0.0,0,1,0,0.0
Status,1681634787000,51,18,3,5,1602562560,0.00,146.0,9.0,0,1,0,0.0
Status,1681634787000,51,19,3,20,1603124990,0.00,293.0,35.0,0,1,0,0.0
Status,1681634787000,51,20,3,3,1604812540,0.00,52.0,2.0,0,1,0,0.0
Status,1681634787000,51,21,3,4,1605374980,0.00,98.0,15.0,0,1,0,0.0
Status,1681634787000,51,22,5,30,1561097980,24.90,29.0,33.0,0,1,0,24.9
Status,1681634787000,51,23,5,20,1561097980,38.00,133.0,28.0,1,1,1,38.0
Status,1681634787000,51,24,5,19,1561097980,13.50,181.0,10.0,0,1,0,13.5
Status,1681634787000,51,25,5,13,1561097980,16.30,80.0,81.0,0,1,0,16.3
Status,1681634787000,51,26,5,8,1561097980,18.00,49.0,70.0,1,1,1,18.0
Status,1681634787000,51,27,5,7,1561097980,19.70,85.0,47.0,1,1,0,19.7
Status,1681634787000,51,28,5,5,1561097980,25.20,227.0,59.0,0,1,0,25.2
Status,1681634787000,51,29,5,3,1561097980,26.10,113.0,47.0,1,1,0,26.1
Status,1681634787000,51,30,5,2,1561097980,27.50,161.0,67.0,0,1,0,27.5
Status,1681634787000,51,31,5,1,1561097980,0.00,95.0,14.0,0,1,0,0.0
Status,1681634787000,51,32,5,6,1561097980,0.00,161.0,4.0,0,1,0,0.0
Status,1681634787000,51,33,5,9,1561097980,0.00,175.0,11.0,0,1,0,0.0
Status,1681634787000,51,34,5,10,1561097980,0.00,64.0,58.0,0,1,0,0.0
Status,1681634787000,51,35,5,16,1561097980,0.00,157.0,1.0,0,1,0,0.0
Status,1681634787000,51,36,5,29,1561097980,0.00,316.0,41.0,0,1,0,0.0
Status,1681634787000,51,37,4,194,1575420030,18.60,123.0,23.0,0,1,1,18.6
Status,1681634787000,51,38,4,195,1575420030,21.10,56.0,23.0,1,1,1,21.1
Status,1681634787000,51,39,2,128,1575420030,37.10,0.0,0.0,0,0,0,37.1
Status,1681634787000,51,40,4,196,1575420030,0.00,84.0,21.0,0,0,0,0.0
Status,1681634787000,51,41,4,194,1176450050,24.40,123.0,23.0,1,1,1,24.4
Status,1681634787000,51,42,6,1,1575420030,16.50,329.0,47.0,1,1,0,16.5
Status,1681634787000,51,43,6,7,1575420030,17.00,125.0,5.0,0,1,0,17.0
Status,1681634787000,51,44,6,21,1575420030,17.00,106.0,78.0,0,1,0,17.0
Status,1681634787000,51,45,6,26,1575420030,13.90,324.0,62.0,0,1,0,13.9
Status,1681634787000,51,46,6,27,1575420030,34.00,136.0,25.0,1,1,0,34.0
Status,1681634787000,51,47,6,33,1575420030,27.60,250.0,35.0,1,1,0,27.6
Status,1681634787000,51,48,6,13,1575420030,0.00,29.0,25.0,0,1,0,0.0
Status,1681634787000,51,49,6,27,1176450050,30.60,136.0,25.0,0,1,0,30.6
Status,1681634787000,51,50,6,33,1176450050,10.80,250.0,35.0,0,1,0,10.8
Fix,GPS,17.4456263500,78.3826878300,513.0811157226562,0.0,3.7900925,,1681634788000,0.2780288,,861169006056545,2.7512836
Raw,1681634787448,1000934716000000,18,,-1364669070732117089,-0.9346470832824707,43.37020072853193,17.303995313853413,23.07774467772792,211,6,0.0,16399,31605374023071,35,26.2,531.2523803710938,0.7475000023841858,16,0.0,0.0,1575420030,,,,0,,1,1.1,22.599999999999998,0.0,0.0,,,C,
Raw,1681634787448,1000934716000000,18,,-1364669070732117089,-0.9346470832824707,43.37020072853193,17.303995313853413,23.07774467772792,211,12,0.0,16399,31605373646643,92,19.0,-545.0201416015625,2.7760000228881836,16,0.0,0.0,1575420030,,,,0,,1,1.1,15.4,0.0,0.0,,,C,
Raw,1681634787448,1000934716000000,18,,-1364669070732117089,-0.9346470832824707,43.37020072853193,17.303995313853413,23.07774467772792,211,17,0.0,16399,31605366807835,70,20.6,197.1442413330078,1.8954999446868896,16,0.0,0.0,1575420030,,,,0,,1,1.1,17.0,0.0,0.0,,,C,
Raw,1681634787448,1000934716000000,18,,-1364669070732117089,-0.9346470832824707,43.37020072853193,17.303995313853413,23.07774467772792,211,20,0.0,16399,31605378248984,19,31.4,-364.1476745605469,0.052800003439188004,16,0.0,1902.9177342976868,1575420030,,,,0,,1,1.1,27.799999999999997,0.0,0.0,,,C,
Raw,1681634787448,1000934716000000,18,,-1364669070732117089,-0.9346470832824707,43.37020072853193,17.303995313853413,23.07774467772792,211,24,0.0,16399,31605371744790,40,24.9,227.44850158691406,0.8629999756813049,16,0.0,0.0,1575420030,,,,0,,1,1.1,21.299999999999997,0.0,0.0,,,C,
Raw,1681634787448,1000934716000000,18,,-1364669070732117089,-0.9346470832824707,43.37020072853193,17.303995313853413,23.07774467772792,211,195,0.0,16399,31605307745842,70,21.1,-75.6893081665039,1.8369998931884766,16,0.0,0.0,1575420030,,,,0,,4,1.1,17.5,0.0,0.0,,,C,
Raw,1681634787448,1000934716000000,18,,-1364669070732117089,-0.9346470832824707,43.37020072853193,17.303995313853413,23.07774467772792,211,16,0.0,49359,42387379876429,17,32.9,605.3342895507812,0.22370000183582306,16,0.0,1872.002391714177,1601437440,,,,0,,3,-0.51,28.9,3854.3427734375,14.659944534301758,,,C,
Raw,1681634787448,1000934716000000,18,,-1364669070732117089,-0.9346470832824707,43.37020072853193,17.303995313853413,23.07774467772792,211,30,0.0,16399,31591368390276,46,24.9,245.23443603515625,0.8585000038146973,16,0.0,0.0,1561097980,,,,0,,5,1.55,20.599999999999998,-1512.1463623046875,13.59158706665039,,,I,
Raw,1681634787448,1000934716000000,18,,-1364669070732117089,-0.9346470832824707,43.37020072853193,17.303995313853413,23.07774467772792,211,20,0.0,16399,31591368078433,11,38.0,-371.9441223144531,0.03319999948143959,16,0.0,1920.3757538518662,1561097980,,,,0,,5,1.55,33.7,-1512.1463623046875,13.59158706665039,,,I,
Raw,1681634787448,1000934716000000,18,,-1364669070732117089,-0.9346470832824707,43.37020072853193,17.303995313853413,23.07774467772792,211,7,0.0,16399,31591324485362,92,19.7,-56.84368896484375,2.762500286102295,16,0.0,0.0,1561097980,,,,0,,5,1.55,15.399999999999999,-1512.1463623046875,13.59158706665039,,,I,
Raw,1681634787448,1000934716000000,18,,-1364669070732117089,-0.9346470832824707,43.37020072853193,17.303995313853413,23.07774467772792,211,1,0.0,23567,31605366083405,139,16.5,-367.9233093261719,3.8585000038146973,16,0.0,0.0,1575420030,,,,0,,6,0.82,12.2,-739.5875244140625,14.027447700500488,,,C,
Raw,1681634787448,1000934716000000,18,,-1364669070732117089,-0.9346470832824707,43.37020072853193,17.303995313853413,23.07774467772792,211,27,0.0,23567,31605360417363,16,34.0,443.6174621582031,0.06289999932050705,16,0.0,1902.9177342976868,1575420030,,,,0,,6,0.82,29.7,-739.5875244140625,14.027447700500488,,,C,
Raw,1681634787448,1000934716000000,18,,-1364669070732117089,-0.9346470832824707,43.37020072853193,17.303995313853413,23.07774467772792,211,33,0.0,23567,31605362885462,31,27.6,-199.2469940185547,0.6784999966621399,16,0.0,0.0,1575420030,,,,0,,6,0.82,23.3,-739.5875244140625,14.027447700500488,,,C,
Raw,1681634787448,1000934716000000,18,,-1364669070732117089,-0.9346470832824707,43.37020072853193,17.303995313853413,23.07774467772792,211,194,0.0,16399,31605322719821,11,24.4,-72.22516632080078,0.1678999960422516,16,0.0,2548.2550006752426,1176450050,,,,0,,4,,19.5,-7860.00048828125,100.0,,,Q,
Status,1681634788000,51,0,1,5,1575420030,21.70,184.0,30.0,1,1,1,21.7
Status,1681634788000,51,1,1,6,1575420030,26.20,23.0,35.0,1,1,1,26.2
Status,1681634788000,51,2,1,11,1575420030,15.90,324.0,68.0,0,1,0,15.9
Status,1681634788000,51,3,1,12,1575420030,19.00,327.0,33.0,1,1,0,19.0
Status,1681634788000,51,4,1,17,1575420030,21.40,70.0,13.0,1,1,0,21.4
Status,1681634788000,51,5,1,20,1575420030,30.90,163.0,56.0,1,1,1,30.9
Status,1681634788000,51,6,1,24,1575420030,25.40,254.0,31.0,1,1,0,25.4
Status,1681634788000,51,7,1,13,1575420030,0.00,185.0,2.0,0,1,0,0.0
Status,1681634788000,51,8,1,14,1575420030,0.00,133.0,11.0,0,1,1,0.0
Status,1681634788000,51,9,1,19,1575420030,0.00,49.0,27.0,0,1,1,0.0
Status,1681634788000,51,10,1,25,1575420030,0.00,320.0,3.0,0,1,0,0.0
Status,1681634788000,51,11,1,6,1176450050,15.60,23.0,35.0,0,1,1,15.6
Status,1681634788000,51,12,1,24,1176450050,30.00,254.0,31.0,0,1,0,30.0
Status,1681634788000,51,13,3,9,1600875010,19.00,300.0,65.0,1,1,0,19.0
Status,1681634788000,51,14,3,16,1601437440,34.00,171.0,47.0,1,1,1,34.0
Status,1681634788000,51,15,3,19,1603687550,17.10,8.0,27.0,0,1,0,17.1
Status,1681634788000,51,16,3,10,1598062460,0.00,327.0,21.0,0,1,0,0.0
Status,1681634788000,51,17,3,18,1600312450,0.00,0.0,0.0,0,1,0,0.0
Status,1681634788000,51,18,3,5,1602562560,0.00,146.0,9.0,0,1,0,0.0
Status,1681634788000,51,19,3,20,1603124990,0.00,293.0,35.0,0,1,0,0.0
Status,1681634788000,51,20,3,3,1604812540,0.00,52.0,2.0,0,1,0,0.0
Status,1681634788000,51,21,3,4,1605374980,0.00,98.0,15.0,0,1,0,0.0
Status,1681634788000,51,22,5,30,1561097980,26.50,29.0,33.0,0,1,0,26.5
Status,1681634788000,51,23,5,20,1561097980,38.00,133.0,28.0,1,1,1,38.0
Status,1681634788000,51,24,5,19,1561097980,13.50,181.0,10.0,0,1,0,13.5
Status,1681634788000,51,25,5,13,1561097980,16.30,80.0,81.0,0,1,0,16.3
Status,1681634788000,51,26,5,8,1561097980,18.00,49.0,70.0,1,1,1,18.0
Status,1681634788000,51,27,5,7,1561097980,19.70,85.0,47.0,1,1,0,19.7
Status,1681634788000,51,28,5,5,1561097980,29.10,227.0,59.0,0,1,0,29.1
Status,1681634788000,51,29,5,3,1561097980,26.10,113.0,47.0,1,1,0,26.1
Status,1681634788000,51,30,5,2,1561097980,28.90,161.0,67.0,0,1,0,28.9
Status,1681634788000,51,31,5,1,1561097980,0.00,95.0,14.0,0,1,0,0.0
Status,1681634788000,51,32,5,6,1561097980,0.00,161.0,4.0,0,1,0,0.0
Status,1681634788000,51,33,5,9,1561097980,0.00,175.0,11.0,0,1,0,0.0
Status,1681634788000,51,34,5,10,1561097980,0.00,64.0,58.0,0,1,0,0.0
Status,1681634788000,51,35,5,16,1561097980,0.00,157.0,1.0,0,1,0,0.0
Status,1681634788000,51,36,5,29,1561097980,0.00,316.0,41.0,0,1,0,0.0
Status,1681634788000,51,37,4,194,1575420030,15.00,123.0,23.0,0,1,1,15.0
Status,1681634788000,51,38,4,195,1575420030,21.10,56.0,23.0,1,1,1,21.1
Status,1681634788000,51,39,2,128,1575420030,37.50,0.0,0.0,0,0,0,37.5
Status,1681634788000,51,40,4,196,1575420030,0.00,84.0,21.0,0,0,0,0.0
Status,1681634788000,51,41,4,194,1176450050,23.70,123.0,23.0,1,1,1,23.7
Status,1681634788000,51,42,6,1,1575420030,16.50,329.0,47.0,1,1,0,16.5
Status,1681634788000,51,43,6,7,1575420030,17.00,125.0,5.0,0,1,0,17.0
Status,1681634788000,51,44,6,13,1575420030,14.40,29.0,25.0,0,1,0,14.4
Status,1681634788000,51,45,6,21,1575420030,14.30,106.0,78.0,0,1,0,14.3
Status,1681634788000,51,46,6,26,1575420030,15.40,324.0,62.0,0,1,0,15.4
Status,1681634788000,51,47,6,27,1575420030,34.50,136.0,25.0,1,1,0,34.5
Status,1681634788000,51,48,6,33,1575420030,28.70,250.0,35.0,1,1,0,28.7
Status,1681634788000,51,49,6,27,1176450050,30.60,136.0,25.0,0,1,0,30.6
Status,1681634788000,51,50,6,33,1176450050,10.80,250.0,35.0,0,1,0,10.8
Fix,GPS,17.4456255700,78.3826878300,513.0554809570312,0.0,3.7900925,,1681634789000,0.26400757,,861169973325295,2.7238758
Raw,1681634788448,1000935716000000,18,,-1364669070732117077,-0.20160484313964844,44.0859621448908,17.763090664642505,22.11483863168112,211,5,0.0,16399,31606372113497,61,21.7,-630.51904296875,1.844499945640564,16,0.0,0.0,1575420030,,,,0,,1,1.0,18.099999999999998,0.0,0.0,,,C,
Raw,1681634788448,1000935716000000,18,,-1364669070732117077,-0.20160484313964844,44.0859621448908,17.763090664642505,22.11483863168112,211,6,0.0,16399,31606374021221,35,26.2,531.7280883789062,0.7475000023841858,16,0.0,0.0,1575420030,,,,0,,1,1.0,22.599999999999998,0.0,0.0,,,C,
Raw,1681634788448,1000935716000000,18,,-1364669070732117077,-0.20160484313964844,44.0859621448908,17.763090664642505,22.11483863168112,211,11,0.0,16399,31606379373131,139,15.9,159.13308715820312,7.755000114440918,16,0.0,0.0,1575420030,,,,0,,1,1.0,12.3,0.0,0.0,,,C,
Raw,1681634788448,1000935716000000,18,,-1364669070732117077,-0.20160484313964844,44.0859621448908,17.763090664642505,22.11483863168112,211,17,0.0,16399,31606366807255,70,21.4,198.25746154785156,1.0855000019073486,16,0.0,0.0,1575420030,,,,0,,1,1.0,17.799999999999997,0.0,0.0,,,C,
Raw,1681634788448,1000935716000000,18,,-1364669070732117077,-0.20160484313964844,44.0859621448908,17.763090664642505,22.11483863168112,211,20,0.0,16399,31606378250225,19,30.9,-363.3444519042969,0.052800003439188004,16,0.0,1902.9177342976868,1575420030,,,,0,,1,1.0,27.299999999999997,0.0,0.0,,,C,
Raw,1681634788448,1000935716000000,18,,-1364669070732117077,-0.20160484313964844,44.0859621448908,17.763090664642505,22.11483863168112,211,24,0.0,16399,31606371743982,40,25.4,227.94326782226562,0.8029999732971191,16,0.0,0.0,1575420030,,,,0,,1,1.0,21.799999999999997,0.0,0.0,,,C,
Raw,1681634788448,1000935716000000,18,,-1364669070732117077,-0.20160484313964844,44.0859621448908,17.763090664642505,22.11483863168112,211,194,0.0,16399,31606322712368,159,15.0,-70.74166870117188,9.979500770568848,16,0.0,0.0,1575420030,,,,0,,4,1.0,11.4,0.0,0.0,,,C,
Raw,1681634788448,1000935716000000,18,,-1364669070732117077,-0.20160484313964844,44.0859621448908,17.763090664642505,22.11483863168112,211,16,0.0,49359,42388379874396,14,34.0,606.0609130859375,0.22140000760555267,16,0.0,1872.002391714177,1601437440,,,,0,,3,-0.6,30.0,3854.33837890625,14.682498931884766,,,C,
Raw,1681634788448,1000935716000000,18,,-1364669070732117077,-0.20160484313964844,44.0859621448908,17.763090664642505,22.11483863168112,211,30,0.0,16399,31592368389470,35,26.5,245.03280639648438,0.7384999990463257,16,0.0,0.0,1561097980,,,,0,,5,1.48,22.2,-1512.148681640625,13.617240905761719,,,I,
Raw,1681634788448,1000935716000000,18,,-1364669070732117077,-0.20160484313964844,44.0859621448908,17.763090664642505,22.11483863168112,211,20,0.0,16399,31592368079662,11,38.0,-371.239990234375,0.03319999948143959,16,0.0,1920.3757538518662,1561097980,,,,0,,5,1.48,33.7,-1512.148681640625,13.617240905761719,,,I,
Raw,1681634788448,1000935716000000,18,,-1364669070732117077,-0.20160484313964844,44.0859621448908,17.763090664642505,22.11483863168112,211,5,0.0,16399,31592325757312,27,29.1,11.752817153930664,4.077199935913086,16,0.0,0.0,1561097980,,,,0,,5,1.48,24.8,-1512.148681640625,13.617240905761719,,,I,
Raw,1681634788448,1000935716000000,18,,-1364669070732117077,-0.20160484313964844,44.0859621448908,17.763090664642505,22.11483863168112,211,2,0.0,16399,31592326680797,27,28.9,5.982029914855957,4.455600261688232,16,0.0,0.0,1561097980,,,,0,,5,1.48,24.599999999999998,-1512.148681640625,13.617240905761719,,,I,
Raw,1681634788448,1000935716000000,18,,-1364669070732117077,-0.20160484313964844,44.0859621448908,17.763090664642505,22.11483863168112,211,13,0.0,23567,31606360445589,181,14.4,440.1397399902344,7.875500202178955,16,0.0,0.0,1575420030,,,,0,,6,0.7,10.100000000000001,-739.5883178710938,14.052450180053711,,,C,
Raw,1681634788448,1000935716000000,18,,-1364669070732117077,-0.20160484313964844,44.0859621448908,17.763090664642505,22.11483863168112,211,21,0.0,23567,31606369791756,181,14.3,51.55055236816406,10.187000274658203,16,0.0,0.0,1575420030,,,,0,,6,0.7,10.0,-739.5883178710938,14.052450180053711,,,C,
Raw,1681634788448,1000935716000000,18,,-1364669070732117077,-0.20160484313964844,44.0859621448908,17.763090664642505,22.11483863168112,211,26,0.0,23567,31606368867013,159,15.4,170.66488647460938,5.5455002784729,16,0.0,0.0,1575420030,,,,0,,6,0.7,11.100000000000001,-739.5883178710938,14.052450180053711,,,C,
Raw,1681634788448,1000935716000000,18,,-1364669070732117077,-0.20160484313964844,44.0859621448908,17.763090664642505,22.11483863168112,211,27,0.0,23567,31606360415885,14,34.5,444.3230895996094,0.061900001019239426,16,0.0,1902.9177342976868,1575420030,,,,0,,6,0.7,30.2,-739.5883178710938,14.052450180053711,,,C,
Raw,1681634788448,1000935716000000,18,,-1364669070732117077,-0.20160484313964844,44.0859621448908,17.763090664642505,22.11483863168112,211,33,0.0,23567,31606362886113,27,28.7,-198.57144165039062,0.6285000443458557,16,0.0,0.0,1575420030,,,,0,,6,0.7,24.4,-739.5883178710938,14.052450180053711,,,C,
Raw,1681634788448,1000935716000000,18,,-1364669070732117077,-0.20160484313964844,44.0859621448908,17.763090664642505,22.11483863168112,211,194,0.0,16399,31606322720061,12,23.7,-71.46652221679688,0.934499979019165,16,0.0,0.0,1176450050,,,,0,,4,,18.799999999999997,-7860.00048828125,100.0,,,Q,
Status,1681634789000,51,0,1,5,1575420030,22.50,184.0,30.0,1,1,1,22.5
Status,1681634789000,51,1,1,6,1575420030,25.10,23.0,35.0,1,1,1,25.1
Status,1681634789000,51,2,1,11,1575420030,15.90,324.0,68.0,1,1,0,15.9
Status,1681634789000,51,3,1,12,1575420030,19.00,327.0,33.0,1,1,0,19.0
Status,1681634789000,51,4,1,17,1575420030,21.70,70.0,13.0,1,1,0,21.7
Status,1681634789000,51,5,1,20,1575420030,31.80,163.0,56.0,1,1,1,31.8
Status,1681634789000,51,6,1,24,1575420030,24.60,254.0,31.0,1,1,0,24.6
Status,1681634789000,51,7,1,13,1575420030,0.00,185.0,2.0,0,1,0,0.0
Status,1681634789000,51,8,1,14,1575420030,0.00,133.0,11.0,0,1,1,0.0
Status,1681634789000,51,9,1,19,1575420030,0.00,49.0,27.0,0,1,1,0.0
Status,1681634789000,51,10,1,25,1575420030,0.00,320.0,3.0,0,1,0,0.0
Status,1681634789000,51,11,1,6,1176450050,15.60,23.0,35.0,0,1,1,15.6
Status,1681634789000,51,12,1,24,1176450050,30.00,254.0,31.0,0,1,0,30.0
Status,1681634789000,51,13,3,9,1600875010,19.00,300.0,65.0,0,1,0,19.0
Status,1681634789000,51,14,3,16,1601437440,33.50,171.0,47.0,1,1,1,33.5
Status,1681634789000,51,15,3,19,1603687550,17.10,8.0,27.0,0,1,0,17.1
Status,1681634789000,51,16,3,10,1598062460,0.00,327.0,21.0,0,1,0,0.0
Status,1681634789000,51,17,3,18,1600312450,0.00,0.0,0.0,0,1,0,0.0
Status,1681634789000,51,18,3,5,1602562560,0.00,146.0,9.0,0,1,0,0.0
Status,1681634789000,51,19,3,20,1603124990,0.00,293.0,35.0,0,1,0,0.0
Status,1681634789000,51,20,3,3,1604812540,0.00,52.0,2.0,0,1,0,0.0
Status,1681634789000,51,21,3,4,1605374980,0.00,98.0,15.0,0,1,0,0.0
Status,1681634789000,51,22,5,30,1561097980,24.60,29.0,33.0,0,1,0,24.6
Status,1681634789000,51,23,5,20,1561097980,38.00,133.0,28.0,1,1,1,38.0
Status,1681634789000,51,24,5,19,1561097980,13.50,181.0,10.0,0,1,0,13.5
Status,1681634789000,51,25,5,13,1561097980,16.30,80.0,81.0,0,1,0,16.3
Status,1681634789000,51,26,5,8,1561097980,18.00,49.0,70.0,0,1,1,18.0
Status,1681634789000,51,27,5,7,1561097980,19.70,85.0,47.0,1,1,0,19.7
Status,1681634789000,51,28,5,5,1561097980,29.10,227.0,59.0,0,1,0,29.1
Status,1681634789000,51,29,5,3,1561097980,26.10,113.0,47.0,1,1,0,26.1
Status,1681634789000,51,30,5,2,1561097980,28.90,161.0,67.0,0,1,0,28.9
Status,1681634789000,51,31,5,1,1561097980,0.00,95.0,14.0,0,1,0,0.0
Status,1681634789000,51,32,5,6,1561097980,0.00,161.0,4.0,0,1,0,0.0
Status,1681634789000,51,33,5,9,1561097980,0.00,175.0,11.0,0,1,0,0.0
Status,1681634789000,51,34,5,10,1561097980,0.00,64.0,58.0,0,1,0,0.0
Status,1681634789000,51,35,5,16,1561097980,0.00,157.0,1.0,0,1,0,0.0
Status,1681634789000,51,36,5,29,1561097980,0.00,316.0,41.0,0,1,0,0.0
Status,1681634789000,51,37,4,194,1575420030,15.00,123.0,23.0,1,1,1,15.0
Status,1681634789000,51,38,4,195,1575420030,21.10,56.0,23.0,1,1,1,21.1
Status,1681634789000,51,39,2,128,1575420030,37.30,0.0,0.0,0,0,0,37.3
Status,1681634789000,51,40,4,196,1575420030,0.00,84.0,21.0,0,0,0,0.0
Status,1681634789000,51,41,4,194,1176450050,25.00,123.0,23.0,0,1,1,25.0
Status,1681634789000,51,42,6,1,1575420030,20.00,329.0,47.0,1,1,0,20.0
Status,1681634789000,51,43,6,7,1575420030,14.50,125.0,5.0,0,1,0,14.5
Status,1681634789000,51,44,6,13,1575420030,14.40,29.0,25.0,1,1,0,14.4
Status,1681634789000,51,45,6,21,1575420030,14.30,106.0,78.0,1,1,0,14.3
Status,1681634789000,51,46,6,26,1575420030,15.40,324.0,62.0,1,1,0,15.4
Status,1681634789000,51,47,6,27,1575420030,33.90,136.0,25.0,1,1,0,33.9
Status,1681634789000,51,48,6,33,1575420030,26.80,250.0,35.0,1,1,0,26.8
Status,1681634789000,51,49,6,27,1176450050,30.60,136.0,25.0,0,1,0,30.6
Status,1681634789000,51,50,6,33,1176450050,10.80,250.0,35.0,0,1,0,10.8
Raw,1681634789448,1000936716000000,18,,-1364669070732117056,-0.9583773612976074,44.544613047037274,19.580889583915006,23.02885411968444,211,5,0.0,16399,31607372115507,61,22.5,-631.4990844726562,1.0145000219345093,16,0.0,0.0,1575420030,,,,0,,1,0.9,18.9,0.0,0.0,,,C,
Raw,1681634789448,1000936716000000,18,,-1364669070732117056,-0.9583773612976074,44.544613047037274,19.580889583915006,23.02885411968444,211,6,0.0,16399,31607374019374,40,25.1,531.480712890625,0.8075000047683716,16,0.0,0.0,1575420030,,,,0,,1,0.9,21.5,0.0,0.0,,,C,
Raw,1681634789448,1000936716000000,18,,-1364669070732117056,-0.9583773612976074,44.544613047037274,19.580889583915006,23.02885411968444,211,17,0.0,16399,31607366806489,61,21.7,195.91685485839844,1.0855000019073486,16,0.0,0.0,1575420030,,,,0,,1,0.9,18.099999999999998,0.0,0.0,,,C,
Raw,1681634789448,1000936716000000,18,,-1364669070732117056,-0.9583773612976074,44.544613047037274,19.580889583915006,23.02885411968444,211,20,0.0,16399,31607378251429,17,31.8,-363.88494873046875,0.05220000073313713,16,0.0,1902.9177342976868,1575420030,,,,0,,1,0.9,28.2,0.0,0.0,,,C,
Raw,1681634789448,1000936716000000,18,,-1364669070732117056,-0.9583773612976074,44.544613047037274,19.580889583915006,23.02885411968444,211,24,0.0,16399,31607371743265,40,24.6,228.19065856933594,0.8629999756813049,16,0.0,0.0,1575420030,,,,0,,1,0.9,21.0,0.0,0.0,,,C,
Raw,1681634789448,1000936716000000,18,,-1364669070732117056,-0.9583773612976074,44.544613047037274,19.580889583915006,23.02885411968444,211,16,0.0,49359,42389379872412,16,33.5,605.5510864257812,0.2224000096321106,16,0.0,1872.002391714177,1601437440,,,,0,,3,-0.7,29.5,3854.337158203125,14.70449161529541,,,C,
Raw,1681634789448,1000936716000000,18,,-1364669070732117056,-0.9583773612976074,44.544613047037274,19.580889583915006,23.02885411968444,211,30,0.0,16399,31593368388649,46,24.6,245.5032958984375,0.8585000038146973,16,0.0,0.0,1561097980,,,,0,,5,1.4,20.3,-1512.1480712890625,13.642338752746582,,,I,
Raw,1681634789448,1000936716000000,18,,-1364669070732117056,-0.9583773612976074,44.544613047037274,19.580889583915006,23.02885411968444,211,20,0.0,16399,31593368080908,11,38.0,-371.84259033203125,0.03319999948143959,16,0.0,1920.3757538518662,1561097980,,,,0,,5,1.4,33.7,-1512.1480712890625,13.642338752746582,,,I,
Raw,1681634789448,1000936716000000,18,,-1364669070732117056,-0.9583773612976074,44.544613047037274,19.580889583915006,23.02885411968444,211,1,0.0,23567,31607366085834,92,20.0,-368.30389404296875,1.9285000562667847,16,0.0,0.0,1575420030,,,,0,,6,0.59,15.7,-739.5872192382812,14.07689094543457,,,C,
Raw,1681634789448,1000936716000000,18,,-1364669070732117056,-0.9583773612976074,44.544613047037274,19.580889583915006,23.02885411968444,211,7,0.0,23567,31607353806503,181,14.5,-226.76345825195312,10.12700080871582,16,0.0,0.0,1575420030,,,,0,,6,0.59,10.2,-739.5872192382812,14.07689094543457,,,C,
Raw,1681634789448,1000936716000000,18,,-1364669070732117056,-0.9583773612976074,44.544613047037274,19.580889583915006,23.02885411968444,211,27,0.0,23567,31607360414402,16,33.9,443.8025207519531,0.06289999932050705,16,0.0,1902.9177342976868,1575420030,,,,0,,6,0.59,29.599999999999998,-739.5872192382812,14.07689094543457,,,C,
Raw,1681634789448,1000936716000000,18,,-1364669070732117056,-0.9583773612976074,44.544613047037274,19.580889583915006,23.02885411968444,211,33,0.0,23567,31607362886801,35,26.8,-199.09475708007812,0.7384999990463257,16,0.0,0.0,1575420030,,,,0,,6,0.59,22.5,-739.5872192382812,14.07689094543457,,,C,
Raw,1681634789448,1000936716000000,18,,-1364669070732117056,-0.9583773612976074,44.544613047037274,19.580889583915006,23.02885411968444,211,194,0.0,16399,31607322720293,10,25.0,-72.03418731689453,0.09369999915361404,16,0.0,2548.2550006752426,1176450050,,,,0,,4,,20.1,-7860.00048828125,100.0,,,Q,
Fix,GPS,17.4456243600,78.3826877500,513.0865478515625,0.0,3.7900925,,1681634790000,0.2780288,,861170984473576,2.7103589
Status,1681634790000,51,0,1,5,1575420030,23.90,184.0,30.0,1,1,1,23.9
Status,1681634790000,51,1,1,6,1575420030,27.10,23.0,35.0,1,1,1,27.1
Status,1681634790000,51,2,1,11,1575420030,15.90,324.0,68.0,1,1,0,15.9
Status,1681634790000,51,3,1,12,1575420030,19.00,327.0,33.0,1,1,0,19.0
Status,1681634790000,51,4,1,17,1575420030,24.40,70.0,13.0,1,1,0,24.4
Status,1681634790000,51,5,1,20,1575420030,32.10,163.0,56.0,1,1,1,32.1
Status,1681634790000,51,6,1,24,1575420030,25.00,254.0,31.0,1,1,0,25.0
Status,1681634790000,51,7,1,13,1575420030,0.00,185.0,2.0,0,1,0,0.0
Status,1681634790000,51,8,1,14,1575420030,0.00,133.0,11.0,0,1,1,0.0
Status,1681634790000,51,9,1,19,1575420030,0.00,49.0,27.0,0,1,1,0.0
Status,1681634790000,51,10,1,25,1575420030,0.00,320.0,3.0,0,1,0,0.0
Status,1681634790000,51,11,1,6,1176450050,15.60,23.0,35.0,0,1,1,15.6
Status,1681634790000,51,12,1,24,1176450050,30.00,254.0,31.0,0,1,0,30.0
Status,1681634790000,51,13,3,9,1600875010,19.00,300.0,65.0,0,1,0,19.0
Status,1681634790000,51,14,3,16,1601437440,33.80,171.0,47.0,1,1,1,33.8
Status,1681634790000,51,15,3,19,1603687550,17.10,8.0,27.0,0,1,0,17.1
Status,1681634790000,51,16,3,10,1598062460,0.00,327.0,21.0,0,1,0,0.0
Status,1681634790000,51,17,3,18,1600312450,0.00,0.0,0.0,0,1,0,0.0
Status,1681634790000,51,18,3,5,1602562560,0.00,146.0,9.0,0,1,0,0.0
Status,1681634790000,51,19,3,20,1603124990,0.00,293.0,35.0,0,1,0,0.0
Status,1681634790000,51,20,3,3,1604812540,0.00,52.0,2.0,0,1,0,0.0
Status,1681634790000,51,21,3,4,1605374980,0.00,98.0,15.0,0,1,0,0.0
Status,1681634790000,51,22,5,30,1561097980,25.60,29.0,33.0,0,1,0,25.6
Status,1681634790000,51,23,5,20,1561097980,38.10,133.0,28.0,1,1,1,38.1
Status,1681634790000,51,24,5,19,1561097980,13.50,181.0,10.0,0,1,0,13.5
Status,1681634790000,51,25,5,13,1561097980,16.30,80.0,81.0,0,1,0,16.3
Status,1681634790000,51,26,5,8,1561097980,18.00,49.0,70.0,0,1,1,18.0
Status,1681634790000,51,27,5,7,1561097980,19.80,85.0,47.0,1,1,0,19.8
Status,1681634790000,51,28,5,5,1561097980,29.10,227.0,59.0,0,1,0,29.1
Status,1681634790000,51,29,5,3,1561097980,26.20,113.0,47.0,1,1,0,26.2
Status,1681634790000,51,30,5,2,1561097980,28.90,161.0,67.0,0,1,0,28.9
Status,1681634790000,51,31,5,1,1561097980,0.00,95.0,14.0,0,1,0,0.0
Status,1681634790000,51,32,5,6,1561097980,0.00,161.0,4.0,0,1,0,0.0
Status,1681634790000,51,33,5,9,1561097980,0.00,175.0,11.0,0,1,0,0.0
Status,1681634790000,51,34,5,10,1561097980,0.00,64.0,58.0,0,1,0,0.0
Status,1681634790000,51,35,5,16,1561097980,0.00,157.0,1.0,0,1,0,0.0
Status,1681634790000,51,36,5,29,1561097980,0.00,316.0,41.0,0,1,0,0.0
Status,1681634790000,51,37,4,194,1575420030,19.00,123.0,23.0,0,1,1,19.0
Status,1681634790000,51,38,4,195,1575420030,21.10,56.0,23.0,1,1,1,21.1
Status,1681634790000,51,39,2,128,1575420030,37.60,0.0,0.0,0,0,0,37.6
Status,1681634790000,51,40,4,196,1575420030,0.00,84.0,21.0,0,0,0,0.0
Status,1681634790000,51,41,4,194,1176450050,26.90,123.0,23.0,1,1,1,26.9
Status,1681634790000,51,42,6,1,1575420030,21.60,329.0,47.0,1,1,0,21.6
Status,1681634790000,51,43,6,7,1575420030,14.50,125.0,5.0,1,1,0,14.5
Status,1681634790000,51,44,6,13,1575420030,14.40,29.0,25.0,1,1,0,14.4
Status,1681634790000,51,45,6,21,1575420030,14.30,106.0,78.0,1,1,0,14.3
Status,1681634790000,51,46,6,26,1575420030,18.50,324.0,62.0,1,1,0,18.5
Status,1681634790000,51,47,6,27,1575420030,34.00,136.0,25.0,1,1,0,34.0
Status,1681634790000,51,48,6,33,1575420030,27.60,250.0,35.0,1,1,0,27.6
Status,1681634790000,51,49,6,27,1176450050,30.60,136.0,25.0,0,1,0,30.6
Status,1681634790000,51,50,6,33,1176450050,10.80,250.0,35.0,0,1,0,10.8
Fix,GPS,17.4456227800,78.3826875200,513.0440063476562,0.0,3.7900925,,1681634791000,0.25612497,,861171993096908,2.7814834
Raw,1681634790448,1000937716000000,18,,-1364669070732117039,-0.5463705062866211,43.677413486875594,18.193815240370704,22.18849098969926,211,5,0.0,16399,31608372117683,46,23.9,-630.6332397460938,0.934499979019165,16,0.0,0.0,1575420030,,,,0,,1,1.21,20.299999999999997,0.0,0.0,,,C,
Raw,1681634790448,1000937716000000,18,,-1364669070732117039,-0.5463705062866211,43.677413486875594,18.193815240370704,22.18849098969926,211,6,0.0,16399,31608374017635,31,27.1,530.9097900390625,0.6875,16,0.0,0.0,1575420030,,,,0,,1,1.21,23.5,0.0,0.0,,,C,
Raw,1681634790448,1000937716000000,18,,-1364669070732117039,-0.5463705062866211,43.677413486875594,18.193815240370704,22.18849098969926,211,17,0.0,16399,31608366805831,46,24.4,197.3535614013672,0.8554999828338623,16,0.0,0.0,1575420030,,,,0,,1,1.21,20.799999999999997,0.0,0.0,,,C,
Raw,1681634790448,1000937716000000,18,,-1364669070732117039,-0.5463705062866211,43.677413486875594,18.193815240370704,22.18849098969926,211,20,0.0,16399,31608378252656,17,32.1,-363.4882507324219,0.05220000073313713,16,0.0,1902.9177342976868,1575420030,,,,0,,1,1.21,28.5,0.0,0.0,,,C,
Raw,1681634790448,1000937716000000,18,,-1364669070732117039,-0.5463705062866211,43.677413486875594,18.193815240370704,22.18849098969926,211,24,0.0,16399,31608371742432,40,25.0,228.70443725585938,0.8029999732971191,16,0.0,0.0,1575420030,,,,0,,1,1.21,21.4,0.0,0.0,,,C,
Raw,1681634790448,1000937716000000,18,,-1364669070732117039,-0.5463705062866211,43.677413486875594,18.193815240370704,22.18849098969926,211,194,0.0,16399,31608322712792,92,19.0,-69.92340850830078,2.009500026702881,16,0.0,0.0,1575420030,,,,0,,4,1.21,15.4,0.0,0.0,,,C,
Raw,1681634790448,1000937716000000,18,,-1364669070732117039,-0.5463705062866211,43.677413486875594,18.193815240370704,22.18849098969926,211,16,0.0,49359,42390379870415,16,33.8,606.0076293945312,0.2224000096321106,16,0.0,1872.002391714177,1601437440,,,,0,,3,-0.43,29.799999999999997,3854.32958984375,14.725954055786133,,,C,
Raw,1681634790448,1000937716000000,18,,-1364669070732117039,-0.5463705062866211,43.677413486875594,18.193815240370704,22.18849098969926,211,30,0.0,16399,31594368387832,40,25.6,245.34005737304688,0.7985000014305115,16,0.0,0.0,1561097980,,,,0,,5,1.6,21.3,-1512.1497802734375,13.66706657409668,,,I,
Raw,1681634790448,1000937716000000,18,,-1364669070732117039,-0.5463705062866211,43.677413486875594,18.193815240370704,22.18849098969926,211,20,0.0,16399,31594368082153,11,38.1,-371.51629638671875,0.03319999948143959,16,0.0,1920.3757538518662,1561097980,,,,0,,5,1.6,33.800000000000004,-1512.1497802734375,13.66706657409668,,,I,
Raw,1681634790448,1000937716000000,18,,-1364669070732117039,-0.5463705062866211,43.677413486875594,18.193815240370704,22.18849098969926,211,7,0.0,16399,31594324485858,92,19.8,-56.642051696777344,2.762500286102295,16,0.0,0.0,1561097980,,,,0,,5,1.6,15.5,-1512.1497802734375,13.66706657409668,,,I,
Raw,1681634790448,1000937716000000,18,,-1364669070732117039,-0.5463705062866211,43.677413486875594,18.193815240370704,22.18849098969926,211,3,0.0,16399,31594324775071,40,26.2,14.230125427246094,6.50160026550293,16,0.0,0.0,1561097980,,,,0,,5,1.6,21.9,-1512.1497802734375,13.66706657409668,,,I,
Raw,1681634790448,1000937716000000,18,,-1364669070732117039,-0.5463705062866211,43.677413486875594,18.193815240370704,22.18849098969926,211,1,0.0,23567,31608366087115,70,21.6,-368.2753601074219,1.118499994277954,16,0.0,0.0,1575420030,,,,0,,6,0.88,17.3,-739.5867919921875,14.100973129272461,,,C,
Raw,1681634790448,1000937716000000,18,,-1364669070732117039,-0.5463705062866211,43.677413486875594,18.193815240370704,22.18849098969926,211,26,0.0,23567,31608368865860,106,18.5,170.46507263183594,2.1755001544952393,16,0.0,0.0,1575420030,,,,0,,6,0.88,14.2,-739.5867919921875,14.100973129272461,,,C,
Raw,1681634790448,1000937716000000,18,,-1364669070732117039,-0.5463705062866211,43.677413486875594,18.193815240370704,22.18849098969926,211,27,0.0,23567,31608360412916,16,34.0,444.1258239746094,0.06289999932050705,16,0.0,1902.9177342976868,1575420030,,,,0,,6,0.88,29.7,-739.5867919921875,14.100973129272461,,,C,
Raw,1681634790448,1000937716000000,18,,-1364669070732117039,-0.5463705062866211,43.677413486875594,18.193815240370704,22.18849098969926,211,33,0.0,23567,31608362887437,31,27.6,-198.67611694335938,0.6784999966621399,16,0.0,0.0,1575420030,,,,0,,6,0.88,23.3,-739.5867919921875,14.100973129272461,,,C,
Raw,1681634790448,1000937716000000,18,,-1364669070732117039,-0.5463705062866211,43.677413486875594,18.193815240370704,22.18849098969926,211,194,0.0,16399,31608322720539,8,26.9,-71.718017578125,0.05470000207424164,16,0.0,2548.2550006752426,1176450050,,,,0,,4,,22.0,-7860.00048828125,100.0,,,Q,
Status,1681634791000,51,0,1,5,1575420030,23.90,184.0,30.0,1,1,1,23.9
Status,1681634791000,51,1,1,6,1575420030,26.60,23.0,35.0,1,1,1,26.6
Status,1681634791000,51,2,1,11,1575420030,15.90,324.0,68.0,1,1,0,15.9
Status,1681634791000,51,3,1,12,1575420030,17.90,327.0,33.0,1,1,0,17.9
Status,1681634791000,51,4,1,17,1575420030,24.20,70.0,13.0,1,1,0,24.2
Status,1681634791000,51,5,1,20,1575420030,31.80,163.0,56.0,1,1,1,31.8
Status,1681634791000,51,6,1,24,1575420030,26.40,254.0,31.0,1,1,0,26.4
Status,1681634791000,51,7,1,13,1575420030,0.00,185.0,2.0,0,1,0,0.0
Status,1681634791000,51,8,1,14,1575420030,0.00,133.0,11.0,0,1,1,0.0
Status,1681634791000,51,9,1,19,1575420030,0.00,49.0,27.0,0,1,1,0.0
Status,1681634791000,51,10,1,25,1575420030,0.00,320.0,3.0,0,1,0,0.0
Status,1681634791000,51,11,1,6,1176450050,15.60,23.0,35.0,0,1,1,15.6
Status,1681634791000,51,12,1,24,1176450050,30.00,254.0,31.0,0,1,0,30.0
Status,1681634791000,51,13,3,9,1600875010,19.00,300.0,65.0,0,1,0,19.0
Status,1681634791000,51,14,3,16,1601437440,34.30,171.0,47.0,1,1,1,34.3
Status,1681634791000,51,15,3,19,1603687550,16.50,8.0,27.0,0,1,0,16.5
Status,1681634791000,51,16,3,10,1598062460,0.00,327.0,21.0,0,1,0,0.0
Status,1681634791000,51,17,3,18,1600312450,0.00,0.0,0.0,0,1,0,0.0
Status,1681634791000,51,18,3,5,1602562560,0.00,146.0,9.0,0,1,0,0.0
Status,1681634791000,51,19,3,20,1603124990,0.00,293.0,35.0,0,1,0,0.0
Status,1681634791000,51,20,3,3,1604812540,0.00,52.0,2.0,0,1,0,0.0
Status,1681634791000,51,21,3,4,1605374980,0.00,98.0,15.0,0,1,0,0.0
Status,1681634791000,51,22,5,30,1561097980,26.30,29.0,33.0,0,1,0,26.3
Status,1681634791000,51,23,5,20,1561097980,37.90,133.0,28.0,1,1,1,37.9
Status,1681634791000,51,24,5,19,1561097980,13.50,181.0,10.0,0,1,0,13.5
Status,1681634791000,51,25,5,13,1561097980,16.30,80.0,81.0,0,1,0,16.3
Status,1681634791000,51,26,5,8,1561097980,18.00,49.0,70.0,0,1,1,18.0
Status,1681634791000,51,27,5,7,1561097980,19.80,85.0,47.0,1,1,0,19.8
Status,1681634791000,51,28,5,5,1561097980,28.40,227.0,59.0,0,1,0,28.4
Status,1681634791000,51,29,5,3,1561097980,26.20,113.0,47.0,1,1,0,26.2
Status,1681634791000,51,30,5,2,1561097980,29.00,161.0,67.0,0,1,0,29.0
Status,1681634791000,51,31,5,1,1561097980,0.00,95.0,14.0,0,1,0,0.0
Status,1681634791000,51,32,5,6,1561097980,0.00,161.0,4.0,0,1,0,0.0
Status,1681634791000,51,33,5,9,1561097980,0.00,175.0,11.0,0,1,0,0.0
Status,1681634791000,51,34,5,10,1561097980,0.00,64.0,58.0,0,1,0,0.0
Status,1681634791000,51,35,5,16,1561097980,0.00,157.0,1.0,0,1,0,0.0
Status,1681634791000,51,36,5,29,1561097980,0.00,316.0,41.0,0,1,0,0.0
Status,1681634791000,51,37,4,194,1575420030,19.00,123.0,23.0,0,1,1,19.0
Status,1681634791000,51,38,4,195,1575420030,21.10,56.0,23.0,1,1,1,21.1
Status,1681634791000,51,39,2,128,1575420030,37.90,0.0,0.0,0,0,0,37.9
Status,1681634791000,51,40,4,196,1575420030,0.00,84.0,21.0,0,0,0,0.0
Status,1681634791000,51,41,4,194,1176450050,28.20,123.0,23.0,1,1,1,28.2
Status,1681634791000,51,42,6,1,1575420030,21.60,329.0,47.0,1,1,0,21.6
Status,1681634791000,51,43,6,7,1575420030,17.90,125.0,5.0,1,1,0,17.9
Status,1681634791000,51,44,6,13,1575420030,14.40,29.0,25.0,1,1,0,14.4
Status,1681634791000,51,45,6,21,1575420030,14.30,106.0,78.0,1,1,0,14.3
Status,1681634791000,51,46,6,26,1575420030,18.50,324.0,62.0,1,1,0,18.5
Status,1681634791000,51,47,6,27,1575420030,34.20,136.0,25.0,1,1,0,34.2
Status,1681634791000,51,48,6,33,1575420030,28.70,250.0,35.0,1,1,0,28.7
Status,1681634791000,51,49,6,27,1176450050,30.60,136.0,25.0,0,1,0,30.6
Status,1681634791000,51,50,6,33,1176450050,10.80,250.0,35.0,0,1,0,10.8
Fix,GPS,17.4456195400,78.3826879900,513.075927734375,0.0,3.7900925,,1681634792000,0.17804495,,861172990326127,2.6604025
Raw,1681634791448,1000938716000000,18,,-1364669070732117021,-0.22539281845092773,42.839208617806435,19.08782469548083,20.901901710080885,211,5,0.0,16399,31609372119803,46,23.9,-630.547607421875,0.934499979019165,16,0.0,0.0,1575420030,,,,0,,1,1.23,20.299999999999997,0.0,0.0,,,C,
Raw,1681634791448,1000938716000000,18,,-1364669070732117021,-0.22539281845092773,42.839208617806435,19.08782469548083,20.901901710080885,211,6,0.0,16399,31609374015817,31,26.6,531.9945068359375,0.7475000023841858,16,0.0,0.0,1575420030,,,,0,,1,1.23,23.0,0.0,0.0,,,C,
Raw,1681634791448,1000938716000000,18,,-1364669070732117021,-0.22539281845092773,42.839208617806435,19.08782469548083,20.901901710080885,211,12,0.0,16399,31609373653996,106,17.9,-543.7356567382812,3.746000051498413,16,0.0,0.0,1575420030,,,,0,,1,1.23,14.299999999999999,0.0,0.0,,,C,
Raw,1681634791448,1000938716000000,18,,-1364669070732117021,-0.22539281845092773,42.839208617806435,19.08782469548083,20.901901710080885,211,17,0.0,16399,31609366805242,46,24.2,198.01959228515625,0.8554999828338623,16,0.0,0.0,1575420030,,,,0,,1,1.23,20.599999999999998,0.0,0.0,,,C,
Raw,1681634791448,1000938716000000,18,,-1364669070732117021,-0.22539281845092773,42.839208617806435,19.08782469548083,20.901901710080885,211,20,0.0,16399,31609378253865,17,31.8,-363.00927734375,0.05220000073313713,16,0.0,1902.9177342976868,1575420030,,,,0,,1,1.23,28.2,0.0,0.0,,,C,
Raw,1681634791448,1000938716000000,18,,-1364669070732117021,-0.22539281845092773,42.839208617806435,19.08782469548083,20.901901710080885,211,24,0.0,16399,31609371741712,35,26.4,228.533203125,0.7429999709129333,16,0.0,0.0,1575420030,,,,0,,1,1.23,22.799999999999997,0.0,0.0,,,C,
Raw,1681634791448,1000938716000000,18,,-1364669070732117021,-0.22539281845092773,42.839208617806435,19.08782469548083,20.901901710080885,211,16,0.0,49359,42391379868349,14,34.3,606.5560302734375,0.22140000760555267,16,0.0,1872.002391714177,1601437440,,,,0,,3,-0.36,30.299999999999997,3854.30419921875,14.74614429473877,,,C,
Raw,1681634791448,1000938716000000,18,,-1364669070732117021,-0.22539281845092773,42.839208617806435,19.08782469548083,20.901901710080885,211,19,0.0,49359,42391374731385,139,16.5,432.7928771972656,10.067500114440918,16,0.0,0.0,1603687550,,,,0,,3,-0.36,12.5,3854.30419921875,14.74614429473877,,,C,
Raw,1681634791448,1000938716000000,18,,-1364669070732117021,-0.22539281845092773,42.839208617806435,19.08782469548083,20.901901710080885,211,30,0.0,16399,31595368387020,35,26.3,245.58969116210938,0.7384999990463257,16,0.0,0.0,1561097980,,,,0,,5,1.65,22.0,-1512.16357421875,13.690598487854004,,,I,
Raw,1681634791448,1000938716000000,18,,-1364669070732117021,-0.22539281845092773,42.839208617806435,19.08782469548083,20.901901710080885,211,20,0.0,16399,31595368083387,11,37.9,-371.03680419921875,0.03319999948143959,16,0.0,1920.3757538518662,1561097980,,,,0,,5,1.65,33.6,-1512.16357421875,13.690598487854004,,,I,
Raw,1681634791448,1000938716000000,18,,-1364669070732117021,-0.22539281845092773,42.839208617806435,19.08782469548083,20.901901710080885,211,5,0.0,16399,31595325757239,27,28.4,10.226102828979492,4.42710018157959,16,0.0,0.0,1561097980,,,,0,,5,1.65,24.099999999999998,-1512.16357421875,13.690598487854004,,,I,
Raw,1681634791448,1000938716000000,18,,-1364669070732117021,-0.22539281845092773,42.839208617806435,19.08782469548083,20.901901710080885,211,2,0.0,16399,31595326680795,27,29.0,4.848997116088867,4.120699882507324,16,0.0,0.0,1561097980,,,,0,,5,1.65,24.7,-1512.16357421875,13.690598487854004,,,I,
Raw,1681634791448,1000938716000000,18,,-1364669070732117021,-0.22539281845092773,42.839208617806435,19.08782469548083,20.901901710080885,211,7,0.0,23567,31609353808052,122,17.9,-225.9451904296875,2.236999988555908,16,0.0,0.0,1575420030,,,,0,,6,0.88,13.599999999999998,-739.5960693359375,14.123817443847656,,,C,
Raw,1681634791448,1000938716000000,18,,-1364669070732117021,-0.22539281845092773,42.839208617806435,19.08782469548083,20.901901710080885,211,27,0.0,23567,31609360411433,16,34.2,444.6786193847656,0.06289999932050705,16,0.0,1902.9177342976868,1575420030,,,,0,,6,0.88,29.900000000000002,-739.5960693359375,14.123817443847656,,,C,
Raw,1681634791448,1000938716000000,18,,-1364669070732117021,-0.22539281845092773,42.839208617806435,19.08782469548083,20.901901710080885,211,33,0.0,23567,31609362888122,27,28.7,-198.2194061279297,0.6285000443458557,16,0.0,0.0,1575420030,,,,0,,6,0.88,24.4,-739.5960693359375,14.123817443847656,,,C,
Raw,1681634791448,1000938716000000,18,,-1364669070732117021,-0.22539281845092773,42.839208617806435,19.08782469548083,20.901901710080885,211,194,0.0,16399,31609322720778,8,28.2,-71.22126770019531,0.05220000073313713,16,0.0,2548.2550006752426,1176450050,,,,0,,4,,23.299999999999997,-7860.00048828125,100.0,,,Q,
Status,1681634792000,51,0,1,5,1575420030,22.50,184.0,30.0,1,1,1,22.5
Status,1681634792000,51,1,1,6,1575420030,27.50,23.0,35.0,1,1,1,27.5
Status,1681634792000,51,2,1,11,1575420030,15.90,324.0,68.0,1,1,0,15.9
Status,1681634792000,51,3,1,12,1575420030,17.90,327.0,33.0,1,1,0,17.9
Status,1681634792000,51,4,1,17,1575420030,24.80,70.0,13.0,1,1,0,24.8
Status,1681634792000,51,5,1,20,1575420030,31.50,163.0,56.0,1,1,1,31.5
Status,1681634792000,51,6,1,24,1575420030,25.40,254.0,31.0,1,1,0,25.4
Status,1681634792000,51,7,1,13,1575420030,0.00,185.0,2.0,0,1,0,0.0
Status,1681634792000,51,8,1,14,1575420030,0.00,133.0,11.0,0,1,1,0.0
Status,1681634792000,51,9,1,19,1575420030,0.00,49.0,27.0,0,1,1,0.0
Status,1681634792000,51,10,1,25,1575420030,0.00,320.0,3.0,0,1,0,0.0
Status,1681634792000,51,11,1,6,1176450050,15.60,23.0,35.0,0,1,1,15.6
Status,1681634792000,51,12,1,24,1176450050,30.00,254.0,31.0,0,1,0,30.0
Status,1681634792000,51,13,3,9,1600875010,19.00,300.0,65.0,0,1,0,19.0
Status,1681634792000,51,14,3,16,1601437440,33.50,171.0,47.0,1,1,1,33.5
Status,1681634792000,51,15,3,19,1603687550,16.50,8.0,27.0,1,1,0,16.5
Status,1681634792000,51,16,3,10,1598062460,0.00,327.0,21.0,0,1,0,0.0
Status,1681634792000,51,17,3,18,1600312450,0.00,0.0,0.0,0,1,0,0.0
Status,1681634792000,51,18,3,5,1602562560,0.00,146.0,9.0,0,1,0,0.0
Status,1681634792000,51,19,3,20,1603124990,0.00,293.0,35.0,0,1,0,0.0
Status,1681634792000,51,20,3,3,1604812540,0.00,52.0,2.0,0,1,0,0.0
Status,1681634792000,51,21,3,4,1605374980,0.00,98.0,15.0,0,1,0,0.0
Status,1681634792000,51,22,5,30,1561097980,25.10,29.0,33.0,0,1,0,25.1
Status,1681634792000,51,23,5,20,1561097980,38.00,133.0,28.0,1,1,1,38.0
Status,1681634792000,51,24,5,19,1561097980,13.50,181.0,10.0,0,1,0,13.5
Status,1681634792000,51,25,5,13,1561097980,16.30,80.0,81.0,0,1,0,16.3
Status,1681634792000,51,26,5,8,1561097980,18.00,49.0,70.0,0,1,1,18.0
Status,1681634792000,51,27,5,7,1561097980,19.80,85.0,47.0,1,1,0,19.8
Status,1681634792000,51,28,5,5,1561097980,28.40,227.0,59.0,0,1,0,28.4
Status,1681634792000,51,29,5,3,1561097980,26.20,113.0,47.0,1,1,0,26.2
Status,1681634792000,51,30,5,2,1561097980,29.00,161.0,67.0,0,1,0,29.0
Status,1681634792000,51,31,5,1,1561097980,0.00,95.0,14.0,0,1,0,0.0
Status,1681634792000,51,32,5,6,1561097980,0.00,161.0,4.0,0,1,0,0.0
Status,1681634792000,51,33,5,9,1561097980,0.00,175.0,11.0,0,1,0,0.0
Status,1681634792000,51,34,5,10,1561097980,0.00,64.0,58.0,0,1,0,0.0
Status,1681634792000,51,35,5,16,1561097980,0.00,157.0,1.0,0,1,0,0.0
Status,1681634792000,51,36,5,29,1561097980,0.00,316.0,41.0,0,1,0,0.0
Status,1681634792000,51,37,4,194,1575420030,19.00,123.0,23.0,0,1,1,19.0
Status,1681634792000,51,38,4,195,1575420030,17.30,56.0,23.0,1,1,1,17.3
Status,1681634792000,51,39,2,128,1575420030,37.70,0.0,0.0,0,0,0,37.7
Status,1681634792000,51,40,4,196,1575420030,0.00,84.0,21.0,0,0,0,0.0
Status,1681634792000,51,41,4,194,1176450050,27.20,123.0,23.0,1,1,1,27.2
Status,1681634792000,51,42,6,1,1575420030,21.60,329.0,47.0,1,1,0,21.6
Status,1681634792000,51,43,6,7,1575420030,17.90,125.0,5.0,1,1,0,17.9
Status,1681634792000,51,44,6,13,1575420030,17.50,29.0,25.0,1,1,0,17.5
Status,1681634792000,51,45,6,21,1575420030,14.30,106.0,78.0,1,1,0,14.3
Status,1681634792000,51,46,6,26,1575420030,18.50,324.0,62.0,1,1,0,18.5
Status,1681634792000,51,47,6,27,1575420030,32.10,136.0,25.0,1,1,0,32.1
Status,1681634792000,51,48,6,33,1575420030,25.40,250.0,35.0,1,1,0,25.4
Status,1681634792000,51,49,6,27,1176450050,30.60,136.0,25.0,0,1,0,30.6
Status,1681634792000,51,50,6,33,1176450050,10.80,250.0,35.0,0,1,0,10.8
Raw,1681634792448,1000939716000000,18,,-1364669070732116996,-0.1541891098022461,35.6926757376641,20.781628519646436,15.091467726819463,211,5,0.0,16399,31610372121781,61,22.5,-628.102294921875,1.0145000219345093,16,0.0,0.0,1575420030,,,,0,,1,1.21,18.9,0.0,0.0,,,C,
Raw,1681634792448,1000939716000000,18,,-1364669070732116996,-0.1541891098022461,35.6926757376641,20.781628519646436,15.091467726819463,211,6,0.0,16399,31610374014071,31,27.5,534.7156982421875,0.6875,16,0.0,0.0,1575420030,,,,0,,1,1.21,23.9,0.0,0.0,,,C,
Raw,1681634792448,1000939716000000,18,,-1364669070732116996,-0.1541891098022461,35.6926757376641,20.781628519646436,15.091467726819463,211,17,0.0,16399,31610366804509,40,24.8,199.1994171142578,0.8554999828338623,16,0.0,0.0,1575420030,,,,0,,1,1.21,21.2,0.0,0.0,,,C,
Raw,1681634792448,1000939716000000,18,,-1364669070732116996,-0.1541891098022461,35.6926757376641,20.781628519646436,15.091467726819463,211,20,0.0,16399,31610378255078,19,31.5,-360.4857177734375,0.052800003439188004,16,0.0,1902.9177342976868,1575420030,,,,0,,1,1.21,27.9,0.0,0.0,,,C,
Raw,1681634792448,1000939716000000,18,,-1364669070732116996,-0.1541891098022461,35.6926757376641,20.781628519646436,15.091467726819463,211,24,0.0,16399,31610371740966,40,25.4,231.26390075683594,0.8029999732971191,16,0.0,0.0,1575420030,,,,0,,1,1.21,21.799999999999997,0.0,0.0,,,C,
Raw,1681634792448,1000939716000000,18,,-1364669070732116996,-0.1541891098022461,35.6926757376641,20.781628519646436,15.091467726819463,211,195,0.0,16399,31610307747200,122,17.3,-73.93860626220703,4.487000465393066,16,0.0,0.0,1575420030,,,,0,,4,1.21,13.700000000000001,0.0,0.0,,,C,
Raw,1681634792448,1000939716000000,18,,-1364669070732116996,-0.1541891098022461,35.6926757376641,20.781628519646436,15.091467726819463,211,16,0.0,49359,42392379866292,16,33.5,609.1011352539062,0.2224000096321106,16,0.0,1872.002391714177,1601437440,,,,0,,3,-0.33,29.5,3854.287353515625,14.764875411987305,,,C,
Raw,1681634792448,1000939716000000,18,,-1364669070732116996,-0.1541891098022461,35.6926757376641,20.781628519646436,15.091467726819463,211,30,0.0,16399,31596368386204,46,25.1,247.1068115234375,0.7985000014305115,16,0.0,0.0,1561097980,,,,0,,5,1.64,20.8,-1512.17578125,13.71290111541748,,,I,
Raw,1681634792448,1000939716000000,18,,-1364669070732116996,-0.1541891098022461,35.6926757376641,20.781628519646436,15.091467726819463,211,20,0.0,16399,31596368084625,11,38.0,-368.5764465332031,0.03319999948143959,16,0.0,1920.3757538518662,1561097980,,,,0,,5,1.64,33.7,-1512.17578125,13.71290111541748,,,I,
Raw,1681634792448,1000939716000000,18,,-1364669070732116996,-0.1541891098022461,35.6926757376641,20.781628519646436,15.091467726819463,211,13,0.0,23567,31610360439746,122,17.5,440.72967529296875,3.765500068664551,16,0.0,0.0,1575420030,,,,0,,6,0.88,13.2,-739.6008911132812,14.145284652709961,,,C,
Raw,1681634792448,1000939716000000,18,,-1364669070732116996,-0.1541891098022461,35.6926757376641,20.781628519646436,15.091467726819463,211,27,0.0,23567,31610360409935,19,32.1,446.9672546386719,0.06480000168085098,16,0.0,1902.9177342976868,1575420030,,,,0,,6,0.88,27.8,-739.6008911132812,14.145284652709961,,,C,
Raw,1681634792448,1000939716000000,18,,-1364669070732116996,-0.1541891098022461,35.6926757376641,20.781628519646436,15.091467726819463,211,33,0.0,23567,31610362888800,40,25.4,-195.20326232910156,0.7985000014305115,16,0.0,0.0,1575420030,,,,0,,6,0.88,21.099999999999998,-739.6008911132812,14.145284652709961,,,C,
Raw,1681634792448,1000939716000000,18,,-1364669070732116996,-0.1541891098022461,35.6926757376641,20.781628519646436,15.091467726819463,211,194,0.0,16399,31610322721007,8,27.2,-68.72600555419922,0.05470000207424164,16,0.0,2548.2550006752426,1176450050,,,,0,,4,,22.299999999999997,-7860.00048828125,100.0,,,Q,
Fix,GPS,17.4456180900,78.3826877000,513.1142578125,0.0,3.7900925,,1681634793000,0.2701851,,861173974518887,2.6123114
Status,1681634793000,51,0,1,5,1575420030,24.80,184.0,30.0,1,1,1,24.8
Status,1681634793000,51,1,1,6,1575420030,27.50,23.0,35.0,1,1,1,27.5
Status,1681634793000,51,2,1,11,1575420030,15.90,324.0,68.0,1,1,0,15.9
Status,1681634793000,51,3,1,12,1575420030,19.70,327.0,33.0,1,1,0,19.7
Status,1681634793000,51,4,1,17,1575420030,25.20,70.0,13.0,1,1,0,25.2
Status,1681634793000,51,5,1,20,1575420030,32.20,163.0,56.0,1,1,1,32.2
Status,1681634793000,51,6,1,24,1575420030,26.00,254.0,31.0,1,1,0,26.0
Status,1681634793000,51,7,1,13,1575420030,0.00,185.0,2.0,0,1,0,0.0
Status,1681634793000,51,8,1,14,1575420030,0.00,133.0,11.0,0,1,1,0.0
Status,1681634793000,51,9,1,19,1575420030,0.00,49.0,27.0,0,1,1,0.0
Status,1681634793000,51,10,1,25,1575420030,0.00,320.0,3.0,0,1,0,0.0
Status,1681634793000,51,11,1,6,1176450050,15.60,23.0,35.0,0,1,1,15.6
Status,1681634793000,51,12,1,24,1176450050,30.00,254.0,31.0,0,1,0,30.0
Status,1681634793000,51,13,3,9,1600875010,19.00,300.0,65.0,0,1,0,19.0
Status,1681634793000,51,14,3,16,1601437440,33.70,171.0,47.0,1,1,1,33.7
Status,1681634793000,51,15,3,19,1603687550,16.50,8.0,27.0,1,1,0,16.5
Status,1681634793000,51,16,3,10,1598062460,0.00,327.0,21.0,0,1,0,0.0
Status,1681634793000,51,17,3,18,1600312450,0.00,0.0,0.0,0,1,0,0.0
Status,1681634793000,51,18,3,5,1602562560,0.00,146.0,9.0,0,1,0,0.0
Status,1681634793000,51,19,3,20,1603124990,0.00,293.0,35.0,0,1,0,0.0
Status,1681634793000,51,20,3,3,1604812540,0.00,52.0,2.0,0,1,0,0.0
Status,1681634793000,51,21,3,4,1605374980,0.00,98.0,15.0,0,1,0,0.0
Status,1681634793000,51,22,5,30,1561097980,26.00,29.0,33.0,0,1,0,26.0
Status,1681634793000,51,23,5,20,1561097980,37.70,133.0,28.0,1,1,1,37.7
Status,1681634793000,51,24,5,19,1561097980,13.50,181.0,10.0,0,1,0,13.5
Status,1681634793000,51,25,5,13,1561097980,16.30,80.0,81.0,0,1,0,16.3
Status,1681634793000,51,26,5,8,1561097980,18.00,49.0,70.0,0,1,1,18.0
Status,1681634793000,51,27,5,7,1561097980,19.80,85.0,47.0,1,1,0,19.8
Status,1681634793000,51,28,5,5,1561097980,28.40,227.0,59.0,0,1,0,28.4
Status,1681634793000,51,29,5,3,1561097980,26.30,113.0,47.0,1,1,0,26.3
Status,1681634793000,51,30,5,2,1561097980,29.00,161.0,67.0,0,1,0,29.0
Status,1681634793000,51,31,5,1,1561097980,0.00,95.0,14.0,0,1,0,0.0
Status,1681634793000,51,32,5,6,1561097980,0.00,161.0,4.0,0,1,0,0.0
Status,1681634793000,51,33,5,9,1561097980,0.00,175.0,11.0,0,1,0,0.0
Status,1681634793000,51,34,5,10,1561097980,0.00,64.0,58.0,0,1,0,0.0
Status,1681634793000,51,35,5,16,1561097980,0.00,157.0,1.0,0,1,0,0.0
Status,1681634793000,51,36,5,29,1561097980,0.00,316.0,41.0,0,1,0,0.0
Status,1681634793000,51,37,4,194,1575420030,19.00,123.0,23.0,0,1,1,19.0
Status,1681634793000,51,38,4,195,1575420030,17.30,56.0,23.0,1,1,1,17.3
Status,1681634793000,51,39,2,128,1575420030,37.80,0.0,0.0,0,0,0,37.8
Status,1681634793000,51,40,4,196,1575420030,0.00,84.0,21.0,0,0,0,0.0
Status,1681634793000,51,41,4,194,1176450050,29.90,123.0,23.0,1,1,1,29.9
Status,1681634793000,51,42,6,1,1575420030,21.60,329.0,47.0,1,1,0,21.6
Status,1681634793000,51,43,6,7,1575420030,17.90,125.0,5.0,1,1,0,17.9
Status,1681634793000,51,44,6,13,1575420030,17.50,29.0,25.0,1,1,0,17.5
Status,1681634793000,51,45,6,21,1575420030,14.30,106.0,78.0,1,1,0,14.3
Status,1681634793000,51,46,6,26,1575420030,18.50,324.0,62.0,1,1,0,18.5
Status,1681634793000,51,47,6,27,1575420030,34.30,136.0,25.0,1,1,0,34.3
Status,1681634793000,51,48,6,33,1575420030,28.00,250.0,35.0,1,1,0,28.0
Status,1681634793000,51,49,6,27,1176450050,30.60,136.0,25.0,0,1,0,30.6
Status,1681634793000,51,50,6,33,1176450050,10.80,250.0,35.0,0,1,0,10.8
